{"businesses": [{"id": "K2CdjES-IZDDEgetOnf0Vw", "alias": "one2-snacks-toronto", "name": "One2 Snacks", "image_url": "https://s3-media3.fl.yelpcdn.com/bphoto/6EyMMMSo4OlEGnj78gZiAQ/o.jpg", "is_closed": false, "url": "https://www.yelp.com/biz/one2-snacks-toronto?adjust_creative=0gWaNZrhrN98orCwbx6fPg&utm_campaign=yelp_api_v3&utm_medium=api_v3_business_search&utm_source=0gWaNZrhrN98orCwbx6fPg", "review_count": 230, "categories": [{"alias": "malaysian", "title": "Malaysian"}, {"alias": "chinese", "title": "Chinese"}, {"alias": "asianfusion", "title": "Asian Fusion"}], "rating": 4.5, "coordinates": {"latitude": 43.7871904907403, "longitude": -79.2766229063272}, "transactions": [], "price": "$", "location": {"address1": "8 Glen Watford Drive", "address2": "Unit 26", "address3": "", "city": "Toronto", "zip_code": "M1S 2C1", "country": "CA", "state": "ON", "display_address": ["8 Glen Watford Drive", "Unit 26", "Toronto, ON M1S 2C1", "Canada"]}, "phone": "+16473407099", "display_phone": "+1 647-340-7099", "distance": 1455.7277497089449}, {"id": "cWPTOM_o5toaXpq0gNxD7Q", "alias": "vanta-coffee-club-and-eatery-toronto-2", "name": "Vanta Coffee Club & Eatery", "image_url": "https://s3-media2.fl.yelpcdn.com/bphoto/7FpPg4K_CbBg1LcTHiYYww/o.jpg", "is_closed": false, "url": "https://www.yelp.com/biz/vanta-coffee-club-and-eatery-toronto-2?adjust_creative=0gWaNZrhrN98orCwbx6fPg&utm_campaign=yelp_api_v3&utm_medium=api_v3_business_search&utm_source=0gWaNZrhrN98orCwbx6fPg", "review_count": 220, "categories": [{"alias": "coffee", "title": "Coffee & Tea"}, {"alias": "cafes", "title": "Cafes"}, {"alias": "sandwiches", "title": "Sandwiches"}], "rating": 4.0, "coordinates": {"latitude": 43.7889, "longitude": -79.26864}, "transactions": [], "price": "$", "location": {"address1": "2101 Brimley Road", "address2": "", "address3": null, "city": "Toronto", "zip_code": "M1S 2B4", "country": "CA", "state": "ON", "display_address": ["2101 Brimley Road", "Toronto, ON M1S 2B4", "Canada"]}, "phone": "+14169674653", "display_phone": "+1 416-967-4653", "distance": 1283.8005733674852}, {"id": "ZyOuwa3Eau6dbUiEPwsUoA", "alias": "katsuya-toronto-12", "name": "Katsuya", "image_url": "https://s3-media2.fl.yelpcdn.com/bphoto/m4Jw2vbQN1o9JoCenf4_dg/o.jpg", "is_closed": false, "url": "https://www.yelp.com/biz/katsuya-toronto-12?adjust_creative=0gWaNZrhrN98orCwbx6fPg&utm_campaign=yelp_api_v3&utm_medium=api_v3_business_search&utm_source=0gWaNZrhrN98orCwbx6fPg", "review_count": 155, "categories": [{"alias": "japanese", "title": "Japanese"}], "rating": 4.0, "coordinates": {"latitude": 43.787399, "longitude": -79.2670943}, "transactions": [], "price": "$$", "location": {"address1": "4447 Sheppard Ave E", "address2": "", "address3": null, "city": "Toronto", "zip_code": "M1S 1V3", "country": "CA", "state": "ON", "display_address": ["4447 Sheppard Ave E", "Toronto, ON M1S 1V3", "Canada"]}, "phone": "+14162934449", "display_phone": "+1 416-293-4449", "distance": 1097.1274404910855}, {"id": "_xAJZOKBMPOe47p1MphB2w", "alias": "fishman-lobster-clubhouse-restaurant-toronto", "name": "Fishman Lobster Clubhouse Restaurant", "image_url": "https://s3-media4.fl.yelpcdn.com/bphoto/H6iQqtnjH6XHMeG3s-lM5g/o.jpg", "is_closed": false, "url": "https://www.yelp.com/biz/fishman-lobster-clubhouse-restaurant-toronto?adjust_creative=0gWaNZrhrN98orCwbx6fPg&utm_campaign=yelp_api_v3&utm_medium=api_v3_business_search&utm_source=0gWaNZrhrN98orCwbx6fPg", "review_count": 927, "categories": [{"alias": "chinese", "title": "Chinese"}, {"alias": "seafood", "title": "Seafood"}], "rating": 4.0, "coordinates": {"latitude": 43.80190978113934, "longitude": -79.29539503439331}, "transactions": [], "price": "$$$", "location": {"address1": "4020 Finch Avenue E", "address2": null, "address3": "", "city": "Toronto", "zip_code": "M1S 3T6", "country": "CA", "state": "ON", "display_address": ["4020 Finch Avenue E", "Toronto, ON M1S 3T6", "Canada"]}, "phone": "+14163210250", "display_phone": "+1 416-321-0250", "distance": 3680.072885933167}, {"id": "j0aiaJkrU-5VgbCsdx-txg", "alias": "chris-jerk-caribbean-bistro-toronto", "name": "Chris Jerk Caribbean Bistro", "image_url": "https://s3-media3.fl.yelpcdn.com/bphoto/OdZQzuEBoprSFTcBsxPmZA/o.jpg", "is_closed": false, "url": "https://www.yelp.com/biz/chris-jerk-caribbean-bistro-toronto?adjust_creative=0gWaNZrhrN98orCwbx6fPg&utm_campaign=yelp_api_v3&utm_medium=api_v3_business_search&utm_source=0gWaNZrhrN98orCwbx6fPg", "review_count": 363, "categories": [{"alias": "caribbean", "title": "Caribbean"}], "rating": 4.5, "coordinates": {"latitude": 43.789649473453, "longitude": -79.3024008755197}, "transactions": [], "price": "$$", "location": {"address1": "2570 Birchmount Road", "address2": "", "address3": "", "city": "Toronto", "zip_code": "M1T 2M5", "country": "CA", "state": "ON", "display_address": ["2570 Birchmount Road", "Toronto, ON M1T 2M5", "Canada"]}, "phone": "+14162975375", "display_phone": "+1 416-297-5375", "distance": 3352.6279596301256}, {"id": "aLTpnF4xG3KA5trMilgChQ", "alias": "ni-ji-sushi-toronto", "name": "Ni Ji Sushi", "image_url": "https://s3-media1.fl.yelpcdn.com/bphoto/vZ3m4oa31z_1t8sfPilkcg/o.jpg", "is_closed": false, "url": "https://www.yelp.com/biz/ni-ji-sushi-toronto?adjust_creative=0gWaNZrhrN98orCwbx6fPg&utm_campaign=yelp_api_v3&utm_medium=api_v3_business_search&utm_source=0gWaNZrhrN98orCwbx6fPg", "review_count": 261, "categories": [{"alias": "japanese", "title": "Japanese"}, {"alias": "sushi", "title": "Sushi Bars"}], "rating": 4.0, "coordinates": {"latitude": 43.76751, "longitude": -79.2716499}, "transactions": [], "price": "$$", "location": {"address1": "1095 Ellesmere Road", "address2": "", "address3": "", "city": "Toronto", "zip_code": "M1P 2W9", "country": "CA", "state": "ON", "display_address": ["1095 Ellesmere Road", "Toronto, ON M1P 2W9", "Canada"]}, "phone": "+14167553335", "display_phone": "+1 416-755-3335", "distance": 1280.8331186456671}, {"id": "mUUTJY9_BqmAYxypHiqWrw", "alias": "francesca-toronto", "name": "Francesca", "image_url": "https://s3-media2.fl.yelpcdn.com/bphoto/pw7wgAPrJKHESV6O8E3q2g/o.jpg", "is_closed": false, "url": "https://www.yelp.com/biz/francesca-toronto?adjust_creative=0gWaNZrhrN98orCwbx6fPg&utm_campaign=yelp_api_v3&utm_medium=api_v3_business_search&utm_source=0gWaNZrhrN98orCwbx6fPg", "review_count": 152, "categories": [{"alias": "bakeries", "title": "Bakeries"}], "rating": 4.0, "coordinates": {"latitude": 43.78782, "longitude": -79.25672}, "transactions": [], "price": "$$", "location": {"address1": "2 Invergordon Avenue", "address2": "", "address3": "", "city": "Toronto", "zip_code": "M1S 2Y8", "country": "CA", "state": "ON", "display_address": ["2 Invergordon Avenue", "Toronto, ON M1S 2Y8", "Canada"]}, "phone": "+14162991174", "display_phone": "+1 416-299-1174", "distance": 1260.2262759755788}, {"id": "9XcWAcp1dCpcLcHTBENn-Q", "alias": "gourmet-malaysia-scarborough-2", "name": "Gourmet Malaysia", "image_url": "https://s3-media3.fl.yelpcdn.com/bphoto/Z6JUxCQH5gZbHc_vZ7PP9w/o.jpg", "is_closed": false, "url": "https://www.yelp.com/biz/gourmet-malaysia-scarborough-2?adjust_creative=0gWaNZrhrN98orCwbx6fPg&utm_campaign=yelp_api_v3&utm_medium=api_v3_business_search&utm_source=0gWaNZrhrN98orCwbx6fPg", "review_count": 276, "categories": [{"alias": "singaporean", "title": "Singaporean"}, {"alias": "malaysian", "title": "Malaysian"}, {"alias": "indonesian", "title": "Indonesian"}], "rating": 3.5, "coordinates": {"latitude": 43.7885129161, "longitude": -79.2665494794}, "transactions": [], "price": "$$", "location": {"address1": "4466 Sheppard Avenue E", "address2": "Unit 101", "address3": "", "city": "Scarborough", "zip_code": "M1S 1V2", "country": "CA", "state": "ON", "display_address": ["4466 Sheppard Avenue E", "Unit 101", "Scarborough, ON M1S 1V2", "Canada"]}, "phone": "+16477641188", "display_phone": "+1 647-764-1188", "distance": 1209.9615241639028}, {"id": "F9tePBgROEAcd8xZqTZUfg", "alias": "jollibee-toronto-6", "name": "Jollibee", "image_url": "https://s3-media1.fl.yelpcdn.com/bphoto/sBmEGQEAYoMDqA-APe6q4Q/o.jpg", "is_closed": false, "url": "https://www.yelp.com/biz/jollibee-toronto-6?adjust_creative=0gWaNZrhrN98orCwbx6fPg&utm_campaign=yelp_api_v3&utm_medium=api_v3_business_search&utm_source=0gWaNZrhrN98orCwbx6fPg", "review_count": 282, "categories": [{"alias": "filipino", "title": "Filipino"}], "rating": 3.5, "coordinates": {"latitude": 43.7732, "longitude": -79.28111}, "transactions": [], "price": "$$", "location": {"address1": "15 William Kitchen Road", "address2": "", "address3": null, "city": "Toronto", "zip_code": "M1P 5B7", "country": "CA", "state": "ON", "display_address": ["15 William Kitchen Road", "Toronto, ON M1P 5B7", "Canada"]}, "phone": "+16479531100", "display_phone": "+1 647-953-1100", "distance": 1461.0677314947143}, {"id": "8I2XBrjf4rOEWx7pnKpVeg", "alias": "kub-khao-thai-eatery-toronto", "name": "Kub Khao Thai Eatery", "image_url": "https://s3-media1.fl.yelpcdn.com/bphoto/1NFd9uvnoz3N1pwCwEnHQQ/o.jpg", "is_closed": false, "url": "https://www.yelp.com/biz/kub-khao-thai-eatery-toronto?adjust_creative=0gWaNZrhrN98orCwbx6fPg&utm_campaign=yelp_api_v3&utm_medium=api_v3_business_search&utm_source=0gWaNZrhrN98orCwbx6fPg", "review_count": 336, "categories": [{"alias": "thai", "title": "Thai"}], "rating": 4.0, "coordinates": {"latitude": 43.7802225147531, "longitude": -79.2998219175943}, "transactions": [], "price": "$$", "location": {"address1": "3561 Sheppard E", "address2": "", "address3": "", "city": "Toronto", "zip_code": "M1T 3K7", "country": "CA", "state": "ON", "display_address": ["3561 Sheppard E", "Toronto, ON M1T 3K7", "Canada"]}, "phone": "+14162978888", "display_phone": "+1 416-297-8888", "distance": 2888.183266402696}, {"id": "O0XcTrBa8dR_kjoi4P8hww", "alias": "terrys-restaurant-and-bar-scarborough-2", "name": "Terry's Restaurant & Bar", "image_url": "https://s3-media1.fl.yelpcdn.com/bphoto/n-TbOzQXEVJAfodQejyLvA/o.jpg", "is_closed": false, "url": "https://www.yelp.com/biz/terrys-restaurant-and-bar-scarborough-2?adjust_creative=0gWaNZrhrN98orCwbx6fPg&utm_campaign=yelp_api_v3&utm_medium=api_v3_business_search&utm_source=0gWaNZrhrN98orCwbx6fPg", "review_count": 119, "categories": [{"alias": "greek", "title": "Greek"}, {"alias": "newcanadian", "title": "Canadian (New)"}, {"alias": "breakfast_brunch", "title": "Breakfast & Brunch"}], "rating": 4.0, "coordinates": {"latitude": 43.7746335, "longitude": -79.2407744}, "transactions": [], "price": "$", "location": {"address1": "1920 Ellesmere Road", "address2": "", "address3": "", "city": "Scarborough", "zip_code": "M1H 2V6", "country": "CA", "state": "ON", "display_address": ["1920 Ellesmere Road", "Scarborough, ON M1H 2V6", "Canada"]}, "phone": "+14164313565", "display_phone": "+1 416-431-3565", "distance": 1897.8905074420456}, {"id": "CboINhcX-R1PGNtESJwQPQ", "alias": "monas-roti-caribbean-food-scarborough", "name": "Mona's Roti-Caribbean Food", "image_url": "https://s3-media4.fl.yelpcdn.com/bphoto/56h_u3FcHqGop3zyXAI0Kw/o.jpg", "is_closed": false, "url": "https://www.yelp.com/biz/monas-roti-caribbean-food-scarborough?adjust_creative=0gWaNZrhrN98orCwbx6fPg&utm_campaign=yelp_api_v3&utm_medium=api_v3_business_search&utm_source=0gWaNZrhrN98orCwbx6fPg", "review_count": 121, "categories": [{"alias": "caribbean", "title": "Caribbean"}], "rating": 4.0, "coordinates": {"latitude": 43.79171, "longitude": -79.25054}, "transactions": [], "price": "$$", "location": {"address1": "4810 Sheppard Avenue East", "address2": "", "address3": "", "city": "Scarborough", "zip_code": "M1S 4N6", "country": "CA", "state": "ON", "display_address": ["4810 Sheppard Avenue East", "Scarborough, ON M1S 4N6", "Canada"]}, "phone": "+14164121200", "display_phone": "+1 416-412-1200", "distance": 1916.7913560591041}, {"id": "-TjzQsimpriXVYaH3HdtQA", "alias": "the-fanzone-wings-and-ribs-toronto", "name": "The Fanzone Wings & Ribs", "image_url": "https://s3-media3.fl.yelpcdn.com/bphoto/EbICYFoAGQlikkQQu6CLyg/o.jpg", "is_closed": false, "url": "https://www.yelp.com/biz/the-fanzone-wings-and-ribs-toronto?adjust_creative=0gWaNZrhrN98orCwbx6fPg&utm_campaign=yelp_api_v3&utm_medium=api_v3_business_search&utm_source=0gWaNZrhrN98orCwbx6fPg", "review_count": 181, "categories": [{"alias": "chicken_wings", "title": "Chicken Wings"}, {"alias": "bars", "title": "Bars"}, {"alias": "tradamerican", "title": "American (Traditional)"}], "rating": 4.0, "coordinates": {"latitude": 43.7530567, "longitude": -79.2762336}, "transactions": [], "price": "$$", "location": {"address1": "1168 Kennedy Road", "address2": "", "address3": "", "city": "Toronto", "zip_code": "M1P", "country": "CA", "state": "ON", "display_address": ["1168 Kennedy Road", "Toronto, ON M1P", "Canada"]}, "phone": "+14165510415", "display_phone": "+1 416-551-0415", "distance": 2919.9893434133846}, {"id": "qQsrcouREdFUk4adim1uEA", "alias": "mamajoun-armenian-pizzeria-toronto", "name": "Mamajoun Armenian Pizzeria", "image_url": "https://s3-media2.fl.yelpcdn.com/bphoto/xV0agYjsKF_3rFXX7wqPkg/o.jpg", "is_closed": false, "url": "https://www.yelp.com/biz/mamajoun-armenian-pizzeria-toronto?adjust_creative=0gWaNZrhrN98orCwbx6fPg&utm_campaign=yelp_api_v3&utm_medium=api_v3_business_search&utm_source=0gWaNZrhrN98orCwbx6fPg", "review_count": 115, "categories": [{"alias": "pizza", "title": "Pizza"}, {"alias": "sandwiches", "title": "Sandwiches"}], "rating": 4.5, "coordinates": {"latitude": 43.76045, "longitude": -79.30292}, "transactions": [], "price": "$", "location": {"address1": "209 Ellesmere Road", "address2": "Unit 6", "address3": "", "city": "Toronto", "zip_code": "M1R 4E2", "country": "CA", "state": "ON", "display_address": ["209 Ellesmere Road", "Unit 6", "Toronto, ON M1R 4E2", "Canada"]}, "phone": "+16473505686", "display_phone": "+1 647-350-5686", "distance": 3671.1179349713866}, {"id": "P87jyPn6MkeO-zo3EZWL8A", "alias": "the-real-mccoy-burgers-and-pizza-scarborough", "name": "The Real McCoy Burgers & Pizza", "image_url": "https://s3-media4.fl.yelpcdn.com/bphoto/BqVQZ11bEmtRY-L6W7rUHw/o.jpg", "is_closed": false, "url": "https://www.yelp.com/biz/the-real-mccoy-burgers-and-pizza-scarborough?adjust_creative=0gWaNZrhrN98orCwbx6fPg&utm_campaign=yelp_api_v3&utm_medium=api_v3_business_search&utm_source=0gWaNZrhrN98orCwbx6fPg", "review_count": 163, "categories": [{"alias": "burgers", "title": "Burgers"}, {"alias": "pizza", "title": "Pizza"}], "rating": 4.0, "coordinates": {"latitude": 43.7740553, "longitude": -79.2306408}, "transactions": [], "price": "$", "location": {"address1": "1033 Markham Road", "address2": "", "address3": "", "city": "Scarborough", "zip_code": "M1H 2Y5", "country": "CA", "state": "ON", "display_address": ["1033 Markham Road", "Scarborough, ON M1H 2Y5", "Canada"]}, "phone": "+14164396804", "display_phone": "+1 416-439-6804", "distance": 2710.779459339632}, {"id": "x3JHj5h33ouzw_Ynj-utJg", "alias": "asian-legend-toronto-2", "name": "Asian Legend", "image_url": "https://s3-media3.fl.yelpcdn.com/bphoto/WGxQqPwrGrAsFtPWY1BL1A/o.jpg", "is_closed": false, "url": "https://www.yelp.com/biz/asian-legend-toronto-2?adjust_creative=0gWaNZrhrN98orCwbx6fPg&utm_campaign=yelp_api_v3&utm_medium=api_v3_business_search&utm_source=0gWaNZrhrN98orCwbx6fPg", "review_count": 119, "categories": [{"alias": "chinese", "title": "Chinese"}], "rating": 3.5, "coordinates": {"latitude": 43.78841, "longitude": -79.2672599}, "transactions": [], "price": "$$", "location": {"address1": "4452 Sheppard Avenue E", "address2": "", "address3": "", "city": "Toronto", "zip_code": "M1S 2V7", "country": "CA", "state": "ON", "display_address": ["4452 Sheppard Avenue E", "Toronto, ON M1S 2V7", "Canada"]}, "phone": "+14162988081", "display_phone": "+1 416-298-8081", "distance": 1206.0344298007944}, {"id": "FfF8XGFf8_BSlWSjIgqeQg", "alias": "scaddabush-italian-kitchen-and-bar-scarborough-scarborough", "name": "Scaddabush Italian Kitchen & Bar Scarborough", "image_url": "https://s3-media1.fl.yelpcdn.com/bphoto/GyHZhCekP-iBHoWT_6xy-w/o.jpg", "is_closed": false, "url": "https://www.yelp.com/biz/scaddabush-italian-kitchen-and-bar-scarborough-scarborough?adjust_creative=0gWaNZrhrN98orCwbx6fPg&utm_campaign=yelp_api_v3&utm_medium=api_v3_business_search&utm_source=0gWaNZrhrN98orCwbx6fPg", "review_count": 188, "categories": [{"alias": "italian", "title": "Italian"}, {"alias": "pizza", "title": "Pizza"}, {"alias": "bars", "title": "Bars"}], "rating": 3.5, "coordinates": {"latitude": 43.7777285061541, "longitude": -79.254569376909}, "transactions": [], "price": "$$", "location": {"address1": "580 Progress Ave.", "address2": "", "address3": null, "city": "Scarborough", "zip_code": "M1P 2K2", "country": "CA", "state": "ON", "display_address": ["580 Progress Ave.", "Scarborough, ON M1P 2K2", "Canada"]}, "phone": "+14162969697", "display_phone": "+1 416-296-9697", "distance": 757.643423619438}, {"id": "MphZ3K-bp62qQ1aKxbKB4Q", "alias": "ho-sushi-express-toronto", "name": "Ho Sushi Express", "image_url": "https://s3-media1.fl.yelpcdn.com/bphoto/B0jcDQl7RPLuMbd2dB3yRg/o.jpg", "is_closed": false, "url": "https://www.yelp.com/biz/ho-sushi-express-toronto?adjust_creative=0gWaNZrhrN98orCwbx6fPg&utm_campaign=yelp_api_v3&utm_medium=api_v3_business_search&utm_source=0gWaNZrhrN98orCwbx6fPg", "review_count": 72, "categories": [{"alias": "japanese", "title": "Japanese"}, {"alias": "sushi", "title": "Sushi Bars"}], "rating": 4.0, "coordinates": {"latitude": 43.7811, "longitude": -79.24742}, "transactions": [], "location": {"address1": "28 Lee Centre Drive", "address2": "", "address3": null, "city": "Toronto", "zip_code": "M1H 3J1", "country": "CA", "state": "ON", "display_address": ["28 Lee Centre Drive", "Toronto, ON M1H 3J1", "Canada"]}, "phone": "+14164319397", "display_phone": "+1 416-431-9397", "distance": 1377.8104051993973}, {"id": "7v-SzvvHU2D2V50OzJAL2Q", "alias": "roll-n-bowl-toronto-4", "name": "Roll N Bowl", "image_url": "https://s3-media2.fl.yelpcdn.com/bphoto/X0gvaxa16y0e6eSeEh_2AA/o.jpg", "is_closed": false, "url": "https://www.yelp.com/biz/roll-n-bowl-toronto-4?adjust_creative=0gWaNZrhrN98orCwbx6fPg&utm_campaign=yelp_api_v3&utm_medium=api_v3_business_search&utm_source=0gWaNZrhrN98orCwbx6fPg", "review_count": 116, "categories": [{"alias": "japanese", "title": "Japanese"}, {"alias": "korean", "title": "Korean"}], "rating": 3.5, "coordinates": {"latitude": 43.767194, "longitude": -79.270336}, "transactions": [], "price": "$$", "location": {"address1": "1157 Ellesmere Road", "address2": "", "address3": null, "city": "Toronto", "zip_code": "M1P", "country": "CA", "state": "ON", "display_address": ["1157 Ellesmere Road", "Toronto, ON M1P", "Canada"]}, "phone": "+14167011212", "display_phone": "+1 416-701-1212", "distance": 1282.9235862603941}, {"id": "uSsTuB82xu2kgSUeNNKQcg", "alias": "the-roti-hut-scarborough", "name": "The Roti Hut", "image_url": "https://s3-media4.fl.yelpcdn.com/bphoto/m-7lnlMeeRpEONzk074ngQ/o.jpg", "is_closed": false, "url": "https://www.yelp.com/biz/the-roti-hut-scarborough?adjust_creative=0gWaNZrhrN98orCwbx6fPg&utm_campaign=yelp_api_v3&utm_medium=api_v3_business_search&utm_source=0gWaNZrhrN98orCwbx6fPg", "review_count": 90, "categories": [{"alias": "caribbean", "title": "Caribbean"}, {"alias": "halal", "title": "Halal"}], "rating": 4.0, "coordinates": {"latitude": 43.78705, "longitude": -79.25832}, "transactions": [], "price": "$$", "location": {"address1": "351 Pitfield Road", "address2": "", "address3": "", "city": "Scarborough", "zip_code": "M1S 3E5", "country": "CA", "state": "ON", "display_address": ["351 Pitfield Road", "Scarborough, ON M1S 3E5", "Canada"]}, "phone": "+14162984153", "display_phone": "+1 416-298-4153", "distance": 1092.8789712563296}], "total": 566, "region": {"center": {"longitude": -79.26400584572922, "latitude": 43.7777875391617}}}